<?xml version="1.0" standalone="yes"?>
<NewDataSet>
  <xs:schema id="NewDataSet" xmlns="" xmlns:xs="http://www.w3.org/2001/XMLSchema" xmlns:msdata="urn:schemas-microsoft-com:xml-msdata">
    <xs:element name="NewDataSet" msdata:IsDataSet="true" msdata:UseCurrentLocale="true">
      <xs:complexType>
        <xs:choice minOccurs="0" maxOccurs="unbounded">
          <xs:element name="Table1">
            <xs:complexType>
              <xs:sequence>
                <xs:element name="Name" type="xs:string" minOccurs="0" />
                <xs:element name="Country" type="xs:string" minOccurs="0" />
                <xs:element name="MedalClass" type="xs:int" minOccurs="0" />
                <xs:element name="Quantity" type="xs:int" minOccurs="0" />
                <xs:element name="CapitalLat" type="xs:double" minOccurs="0" />
                <xs:element name="CapitalLon" type="xs:double" minOccurs="0" />
              </xs:sequence>
            </xs:complexType>
          </xs:element>
        </xs:choice>
      </xs:complexType>
    </xs:element>
  </xs:schema>
  <Table1>
    <Name>Russian Federation</Name>
    <Country>RU</Country>
    <MedalClass>1</MedalClass>
    <Quantity>13</Quantity>
    <CapitalLat>55.75222</CapitalLat>
    <CapitalLon>37.61556</CapitalLon>
  </Table1>
  <Table1>
    <Name>Russian Federation</Name>
    <Country>RU</Country>
    <MedalClass>2</MedalClass>
    <Quantity>11</Quantity>
    <CapitalLat>55.75222</CapitalLat>
    <CapitalLon>37.61556</CapitalLon>
  </Table1>
  <Table1>
    <Name>Russian Federation</Name>
    <Country>RU</Country>
    <MedalClass>3</MedalClass>
    <Quantity>9</Quantity>
    <CapitalLat>55.75222</CapitalLat>
    <CapitalLon>37.61556</CapitalLon>
  </Table1>
  <Table1>
    <Name>United States</Name>
    <Country>US</Country>
    <MedalClass>1</MedalClass>
    <Quantity>9</Quantity>
    <CapitalLat>38.89511</CapitalLat>
    <CapitalLon>-77.03637</CapitalLon>
  </Table1>
  <Table1>
    <Name>United States</Name>
    <Country>US</Country>
    <MedalClass>2</MedalClass>
    <Quantity>7</Quantity>
    <CapitalLat>38.89511</CapitalLat>
    <CapitalLon>-77.03637</CapitalLon>
  </Table1>
  <Table1>
    <Name>United States</Name>
    <Country>US</Country>
    <MedalClass>3</MedalClass>
    <Quantity>12</Quantity>
    <CapitalLat>38.89511</CapitalLat>
    <CapitalLon>-77.03637</CapitalLon>
  </Table1>
  <Table1>
    <Name>Norway</Name>
    <Country>NO</Country>
    <MedalClass>1</MedalClass>
    <Quantity>11</Quantity>
    <CapitalLat>59.91273</CapitalLat>
    <CapitalLon>10.74609</CapitalLon>
  </Table1>
  <Table1>
    <Name>Norway</Name>
    <Country>NO</Country>
    <MedalClass>2</MedalClass>
    <Quantity>5</Quantity>
    <CapitalLat>59.91273</CapitalLat>
    <CapitalLon>10.74609</CapitalLon>
  </Table1>
  <Table1>
    <Name>Norway</Name>
    <Country>NO</Country>
    <MedalClass>3</MedalClass>
    <Quantity>10</Quantity>
    <CapitalLat>59.91273</CapitalLat>
    <CapitalLon>10.74609</CapitalLon>
  </Table1>
  <Table1>
    <Name>Canada</Name>
    <Country>CA</Country>
    <MedalClass>1</MedalClass>
    <Quantity>10</Quantity>
    <CapitalLat>45.41117</CapitalLat>
    <CapitalLon>-75.69812</CapitalLon>
  </Table1>
  <Table1>
    <Name>Canada</Name>
    <Country>CA</Country>
    <MedalClass>2</MedalClass>
    <Quantity>10</Quantity>
    <CapitalLat>45.41117</CapitalLat>
    <CapitalLon>-75.69812</CapitalLon>
  </Table1>
  <Table1>
    <Name>Canada</Name>
    <Country>CA</Country>
    <MedalClass>3</MedalClass>
    <Quantity>5</Quantity>
    <CapitalLat>45.41117</CapitalLat>
    <CapitalLon>-75.69812</CapitalLon>
  </Table1>
  <Table1>
    <Name>Netherlands</Name>
    <Country>NL</Country>
    <MedalClass>1</MedalClass>
    <Quantity>8</Quantity>
    <CapitalLat>52.37403</CapitalLat>
    <CapitalLon>4.88969</CapitalLon>
  </Table1>
  <Table1>
    <Name>Netherlands</Name>
    <Country>NL</Country>
    <MedalClass>2</MedalClass>
    <Quantity>7</Quantity>
    <CapitalLat>52.37403</CapitalLat>
    <CapitalLon>4.88969</CapitalLon>
  </Table1>
  <Table1>
    <Name>Netherlands</Name>
    <Country>NL</Country>
    <MedalClass>3</MedalClass>
    <Quantity>9</Quantity>
    <CapitalLat>52.37403</CapitalLat>
    <CapitalLon>4.88969</CapitalLon>
  </Table1>
  <Table1>
    <Name>Germany</Name>
    <Country>DE</Country>
    <MedalClass>1</MedalClass>
    <Quantity>8</Quantity>
    <CapitalLat>52.52437</CapitalLat>
    <CapitalLon>13.41053</CapitalLon>
  </Table1>
  <Table1>
    <Name>Germany</Name>
    <Country>DE</Country>
    <MedalClass>2</MedalClass>
    <Quantity>6</Quantity>
    <CapitalLat>52.52437</CapitalLat>
    <CapitalLon>13.41053</CapitalLon>
  </Table1>
  <Table1>
    <Name>Germany</Name>
    <Country>DE</Country>
    <MedalClass>3</MedalClass>
    <Quantity>5</Quantity>
    <CapitalLat>52.52437</CapitalLat>
    <CapitalLon>13.41053</CapitalLon>
  </Table1>
  <Table1>
    <Name>Austria</Name>
    <Country>AT</Country>
    <MedalClass>1</MedalClass>
    <Quantity>4</Quantity>
    <CapitalLat>48.20849</CapitalLat>
    <CapitalLon>16.37208</CapitalLon>
  </Table1>
  <Table1>
    <Name>Austria</Name>
    <Country>AT</Country>
    <MedalClass>2</MedalClass>
    <Quantity>8</Quantity>
    <CapitalLat>48.20849</CapitalLat>
    <CapitalLon>16.37208</CapitalLon>
  </Table1>
  <Table1>
    <Name>Austria</Name>
    <Country>AT</Country>
    <MedalClass>3</MedalClass>
    <Quantity>5</Quantity>
    <CapitalLat>48.20849</CapitalLat>
    <CapitalLon>16.37208</CapitalLon>
  </Table1>
  <Table1>
    <Name>France</Name>
    <Country>FR</Country>
    <MedalClass>1</MedalClass>
    <Quantity>4</Quantity>
    <CapitalLat>48.85341</CapitalLat>
    <CapitalLon>2.3488</CapitalLon>
  </Table1>
  <Table1>
    <Name>France</Name>
    <Country>FR</Country>
    <MedalClass>2</MedalClass>
    <Quantity>4</Quantity>
    <CapitalLat>48.85341</CapitalLat>
    <CapitalLon>2.3488</CapitalLon>
  </Table1>
  <Table1>
    <Name>France</Name>
    <Country>FR</Country>
    <MedalClass>3</MedalClass>
    <Quantity>7</Quantity>
    <CapitalLat>48.85341</CapitalLat>
    <CapitalLon>2.3488</CapitalLon>
  </Table1>
  <Table1>
    <Name>Sweden</Name>
    <Country>SE</Country>
    <MedalClass>1</MedalClass>
    <Quantity>2</Quantity>
    <CapitalLat>59.33258</CapitalLat>
    <CapitalLon>18.0649</CapitalLon>
  </Table1>
  <Table1>
    <Name>Sweden</Name>
    <Country>SE</Country>
    <MedalClass>2</MedalClass>
    <Quantity>7</Quantity>
    <CapitalLat>59.33258</CapitalLat>
    <CapitalLon>18.0649</CapitalLon>
  </Table1>
  <Table1>
    <Name>Sweden</Name>
    <Country>SE</Country>
    <MedalClass>3</MedalClass>
    <Quantity>6</Quantity>
    <CapitalLat>59.33258</CapitalLat>
    <CapitalLon>18.0649</CapitalLon>
  </Table1>
  <Table1>
    <Name>Switzerland</Name>
    <Country>CH</Country>
    <MedalClass>1</MedalClass>
    <Quantity>6</Quantity>
    <CapitalLat>46.94809</CapitalLat>
    <CapitalLon>7.44744</CapitalLon>
  </Table1>
  <Table1>
    <Name>Switzerland</Name>
    <Country>CH</Country>
    <MedalClass>2</MedalClass>
    <Quantity>3</Quantity>
    <CapitalLat>46.94809</CapitalLat>
    <CapitalLon>7.44744</CapitalLon>
  </Table1>
  <Table1>
    <Name>Switzerland</Name>
    <Country>CH</Country>
    <MedalClass>3</MedalClass>
    <Quantity>2</Quantity>
    <CapitalLat>46.94809</CapitalLat>
    <CapitalLon>7.44744</CapitalLon>
  </Table1>
  <Table1>
    <Name>China</Name>
    <Country>CN</Country>
    <MedalClass>1</MedalClass>
    <Quantity>3</Quantity>
    <CapitalLat>39.9075</CapitalLat>
    <CapitalLon>116.39723</CapitalLon>
  </Table1>
  <Table1>
    <Name>China</Name>
    <Country>CN</Country>
    <MedalClass>2</MedalClass>
    <Quantity>4</Quantity>
    <CapitalLat>39.9075</CapitalLat>
    <CapitalLon>116.39723</CapitalLon>
  </Table1>
  <Table1>
    <Name>China</Name>
    <Country>CN</Country>
    <MedalClass>3</MedalClass>
    <Quantity>2</Quantity>
    <CapitalLat>39.9075</CapitalLat>
    <CapitalLon>116.39723</CapitalLon>
  </Table1>
  <Table1>
    <Name>Republic of Korea</Name>
    <Country>KR</Country>
    <MedalClass>1</MedalClass>
    <Quantity>3</Quantity>
    <CapitalLat>37.566</CapitalLat>
    <CapitalLon>126.9784</CapitalLon>
  </Table1>
  <Table1>
    <Name>Republic of Korea</Name>
    <Country>KR</Country>
    <MedalClass>2</MedalClass>
    <Quantity>3</Quantity>
    <CapitalLat>37.566</CapitalLat>
    <CapitalLon>126.9784</CapitalLon>
  </Table1>
  <Table1>
    <Name>Republic of Korea</Name>
    <Country>KR</Country>
    <MedalClass>3</MedalClass>
    <Quantity>2</Quantity>
    <CapitalLat>37.566</CapitalLat>
    <CapitalLon>126.9784</CapitalLon>
  </Table1>
  <Table1>
    <Name>Czech Republic</Name>
    <Country>CZ</Country>
    <MedalClass>1</MedalClass>
    <Quantity>2</Quantity>
    <CapitalLat>50.08804</CapitalLat>
    <CapitalLon>14.42076</CapitalLon>
  </Table1>
  <Table1>
    <Name>Czech Republic</Name>
    <Country>CZ</Country>
    <MedalClass>2</MedalClass>
    <Quantity>4</Quantity>
    <CapitalLat>50.08804</CapitalLat>
    <CapitalLon>14.42076</CapitalLon>
  </Table1>
  <Table1>
    <Name>Czech Republic</Name>
    <Country>CZ</Country>
    <MedalClass>3</MedalClass>
    <Quantity>2</Quantity>
    <CapitalLat>50.08804</CapitalLat>
    <CapitalLon>14.42076</CapitalLon>
  </Table1>
  <Table1>
    <Name>Slovenia</Name>
    <Country>SI</Country>
    <MedalClass>1</MedalClass>
    <Quantity>2</Quantity>
    <CapitalLat>46.05108</CapitalLat>
    <CapitalLon>14.50513</CapitalLon>
  </Table1>
  <Table1>
    <Name>Slovenia</Name>
    <Country>SI</Country>
    <MedalClass>2</MedalClass>
    <Quantity>2</Quantity>
    <CapitalLat>46.05108</CapitalLat>
    <CapitalLon>14.50513</CapitalLon>
  </Table1>
  <Table1>
    <Name>Slovenia</Name>
    <Country>SI</Country>
    <MedalClass>3</MedalClass>
    <Quantity>4</Quantity>
    <CapitalLat>46.05108</CapitalLat>
    <CapitalLon>14.50513</CapitalLon>
  </Table1>
  <Table1>
    <Name>Japan</Name>
    <Country>JP</Country>
    <MedalClass>1</MedalClass>
    <Quantity>1</Quantity>
    <CapitalLat>35.6895</CapitalLat>
    <CapitalLon>139.69171</CapitalLon>
  </Table1>
  <Table1>
    <Name>Japan</Name>
    <Country>JP</Country>
    <MedalClass>2</MedalClass>
    <Quantity>4</Quantity>
    <CapitalLat>35.6895</CapitalLat>
    <CapitalLon>139.69171</CapitalLon>
  </Table1>
  <Table1>
    <Name>Japan</Name>
    <Country>JP</Country>
    <MedalClass>3</MedalClass>
    <Quantity>3</Quantity>
    <CapitalLat>35.6895</CapitalLat>
    <CapitalLon>139.69171</CapitalLon>
  </Table1>
  <Table1>
    <Name>Italy</Name>
    <Country>IT</Country>
    <MedalClass>1</MedalClass>
    <Quantity>0</Quantity>
    <CapitalLat>41.89474</CapitalLat>
    <CapitalLon>12.4839</CapitalLon>
  </Table1>
  <Table1>
    <Name>Italy</Name>
    <Country>IT</Country>
    <MedalClass>2</MedalClass>
    <Quantity>2</Quantity>
    <CapitalLat>41.89474</CapitalLat>
    <CapitalLon>12.4839</CapitalLon>
  </Table1>
  <Table1>
    <Name>Italy</Name>
    <Country>IT</Country>
    <MedalClass>3</MedalClass>
    <Quantity>6</Quantity>
    <CapitalLat>41.89474</CapitalLat>
    <CapitalLon>12.4839</CapitalLon>
  </Table1>
  <Table1>
    <Name>Belarus</Name>
    <Country>BY</Country>
    <MedalClass>1</MedalClass>
    <Quantity>5</Quantity>
    <CapitalLat>53.9</CapitalLat>
    <CapitalLon>27.56667</CapitalLon>
  </Table1>
  <Table1>
    <Name>Belarus</Name>
    <Country>BY</Country>
    <MedalClass>2</MedalClass>
    <Quantity>0</Quantity>
    <CapitalLat>53.9</CapitalLat>
    <CapitalLon>27.56667</CapitalLon>
  </Table1>
  <Table1>
    <Name>Belarus</Name>
    <Country>BY</Country>
    <MedalClass>3</MedalClass>
    <Quantity>1</Quantity>
    <CapitalLat>53.9</CapitalLat>
    <CapitalLon>27.56667</CapitalLon>
  </Table1>
  <Table1>
    <Name>Poland</Name>
    <Country>PL</Country>
    <MedalClass>1</MedalClass>
    <Quantity>4</Quantity>
    <CapitalLat>52.22977</CapitalLat>
    <CapitalLon>21.01178</CapitalLon>
  </Table1>
  <Table1>
    <Name>Poland</Name>
    <Country>PL</Country>
    <MedalClass>2</MedalClass>
    <Quantity>1</Quantity>
    <CapitalLat>52.22977</CapitalLat>
    <CapitalLon>21.01178</CapitalLon>
  </Table1>
  <Table1>
    <Name>Poland</Name>
    <Country>PL</Country>
    <MedalClass>3</MedalClass>
    <Quantity>1</Quantity>
    <CapitalLat>52.22977</CapitalLat>
    <CapitalLon>21.01178</CapitalLon>
  </Table1>
  <Table1>
    <Name>Finland</Name>
    <Country>FI</Country>
    <MedalClass>1</MedalClass>
    <Quantity>1</Quantity>
    <CapitalLat>60.16952</CapitalLat>
    <CapitalLon>24.93545</CapitalLon>
  </Table1>
  <Table1>
    <Name>Finland</Name>
    <Country>FI</Country>
    <MedalClass>2</MedalClass>
    <Quantity>3</Quantity>
    <CapitalLat>60.16952</CapitalLat>
    <CapitalLon>24.93545</CapitalLon>
  </Table1>
  <Table1>
    <Name>Finland</Name>
    <Country>FI</Country>
    <MedalClass>3</MedalClass>
    <Quantity>1</Quantity>
    <CapitalLat>60.16952</CapitalLat>
    <CapitalLon>24.93545</CapitalLon>
  </Table1>
  <Table1>
    <Name>Great Britain</Name>
    <Country>GB</Country>
    <MedalClass>1</MedalClass>
    <Quantity>1</Quantity>
    <CapitalLat>51.50853</CapitalLat>
    <CapitalLon>-0.12574</CapitalLon>
  </Table1>
  <Table1>
    <Name>Great Britain</Name>
    <Country>GB</Country>
    <MedalClass>2</MedalClass>
    <Quantity>1</Quantity>
    <CapitalLat>51.50853</CapitalLat>
    <CapitalLon>-0.12574</CapitalLon>
  </Table1>
  <Table1>
    <Name>Great Britain</Name>
    <Country>GB</Country>
    <MedalClass>3</MedalClass>
    <Quantity>2</Quantity>
    <CapitalLat>51.50853</CapitalLat>
    <CapitalLon>-0.12574</CapitalLon>
  </Table1>
  <Table1>
    <Name>Latvia</Name>
    <Country>LV</Country>
    <MedalClass>1</MedalClass>
    <Quantity>0</Quantity>
    <CapitalLat>56.946</CapitalLat>
    <CapitalLon>24.10589</CapitalLon>
  </Table1>
  <Table1>
    <Name>Latvia</Name>
    <Country>LV</Country>
    <MedalClass>2</MedalClass>
    <Quantity>2</Quantity>
    <CapitalLat>56.946</CapitalLat>
    <CapitalLon>24.10589</CapitalLon>
  </Table1>
  <Table1>
    <Name>Latvia</Name>
    <Country>LV</Country>
    <MedalClass>3</MedalClass>
    <Quantity>2</Quantity>
    <CapitalLat>56.946</CapitalLat>
    <CapitalLon>24.10589</CapitalLon>
  </Table1>
  <Table1>
    <Name>Australia</Name>
    <Country>AU</Country>
    <MedalClass>1</MedalClass>
    <Quantity>0</Quantity>
    <CapitalLat>-35.28346</CapitalLat>
    <CapitalLon>149.12807</CapitalLon>
  </Table1>
  <Table1>
    <Name>Australia</Name>
    <Country>AU</Country>
    <MedalClass>2</MedalClass>
    <Quantity>2</Quantity>
    <CapitalLat>-35.28346</CapitalLat>
    <CapitalLon>149.12807</CapitalLon>
  </Table1>
  <Table1>
    <Name>Australia</Name>
    <Country>AU</Country>
    <MedalClass>3</MedalClass>
    <Quantity>1</Quantity>
    <CapitalLat>-35.28346</CapitalLat>
    <CapitalLon>149.12807</CapitalLon>
  </Table1>
  <Table1>
    <Name>Ukraine</Name>
    <Country>UA</Country>
    <MedalClass>1</MedalClass>
    <Quantity>1</Quantity>
    <CapitalLat>50.45466</CapitalLat>
    <CapitalLon>30.5238</CapitalLon>
  </Table1>
  <Table1>
    <Name>Ukraine</Name>
    <Country>UA</Country>
    <MedalClass>2</MedalClass>
    <Quantity>0</Quantity>
    <CapitalLat>50.45466</CapitalLat>
    <CapitalLon>30.5238</CapitalLon>
  </Table1>
  <Table1>
    <Name>Ukraine</Name>
    <Country>UA</Country>
    <MedalClass>3</MedalClass>
    <Quantity>1</Quantity>
    <CapitalLat>50.45466</CapitalLat>
    <CapitalLon>30.5238</CapitalLon>
  </Table1>
  <Table1>
    <Name>Slovakia</Name>
    <Country>SK</Country>
    <MedalClass>1</MedalClass>
    <Quantity>1</Quantity>
    <CapitalLat>48.14816</CapitalLat>
    <CapitalLon>17.10674</CapitalLon>
  </Table1>
  <Table1>
    <Name>Slovakia</Name>
    <Country>SK</Country>
    <MedalClass>2</MedalClass>
    <Quantity>0</Quantity>
    <CapitalLat>48.14816</CapitalLat>
    <CapitalLon>17.10674</CapitalLon>
  </Table1>
  <Table1>
    <Name>Slovakia</Name>
    <Country>SK</Country>
    <MedalClass>3</MedalClass>
    <Quantity>0</Quantity>
    <CapitalLat>48.14816</CapitalLat>
    <CapitalLon>17.10674</CapitalLon>
  </Table1>
  <Table1>
    <Name>Croatia</Name>
    <Country>HR</Country>
    <MedalClass>1</MedalClass>
    <Quantity>0</Quantity>
    <CapitalLat>45.81444</CapitalLat>
    <CapitalLon>15.97798</CapitalLon>
  </Table1>
  <Table1>
    <Name>Croatia</Name>
    <Country>HR</Country>
    <MedalClass>2</MedalClass>
    <Quantity>1</Quantity>
    <CapitalLat>45.81444</CapitalLat>
    <CapitalLon>15.97798</CapitalLon>
  </Table1>
  <Table1>
    <Name>Croatia</Name>
    <Country>HR</Country>
    <MedalClass>3</MedalClass>
    <Quantity>0</Quantity>
    <CapitalLat>45.81444</CapitalLat>
    <CapitalLon>15.97798</CapitalLon>
  </Table1>
  <Table1>
    <Name>Kazakhstan</Name>
    <Country>KZ</Country>
    <MedalClass>1</MedalClass>
    <Quantity>0</Quantity>
    <CapitalLat>51.1801</CapitalLat>
    <CapitalLon>71.44598</CapitalLon>
  </Table1>
  <Table1>
    <Name>Kazakhstan</Name>
    <Country>KZ</Country>
    <MedalClass>2</MedalClass>
    <Quantity>0</Quantity>
    <CapitalLat>51.1801</CapitalLat>
    <CapitalLon>71.44598</CapitalLon>
  </Table1>
  <Table1>
    <Name>Kazakhstan</Name>
    <Country>KZ</Country>
    <MedalClass>3</MedalClass>
    <Quantity>1</Quantity>
    <CapitalLat>51.1801</CapitalLat>
    <CapitalLon>71.44598</CapitalLon>
  </Table1>
</NewDataSet>